{"type":"FeatureCollection","features":[{"type":"Feature","id":1,"geometry":{"type":"Point","coordinates":[-15.667423305401824,28.341538774711182]},"properties":{"OBJECTID":1,"codine":"05","nombre":"Canarias","superficie_ha":744558.03,"densidad_pob":295.75,"poblacion":2202048,"hombres":1086276,"mujeres":1115772,"capital":"Santa Cruz de Tenerife y Las Palmas de Gran Canaria","latitud":28.341538775308546,"longitud":-15.66742330553321}},{"type":"Feature","id":2,"geometry":{"type":"Point","coordinates":[-6.150648321519023,39.19142928075589]},"properties":{"OBJECTID":2,"codine":"11","nombre":"Extremadura","superficie_ha":4163393.38,"densidad_pob":25.28,"poblacion":1052523,"hombres":520001,"mujeres":532522,"capital":"Mérida","latitud":39.19142928132402,"longitud":-6.1506483215152254}},{"type":"Feature","id":3,"geometry":{"type":"Point","coordinates":[-7.910747182947156,42.7568993257839]},"properties":{"OBJECTID":3,"codine":"12","nombre":"Galicia","superficie_ha":2958390.05,"densidad_pob":91.14,"poblacion":2696177,"hombres":1296749,"mujeres":1399428,"capital":"Santiago de Compostela","latitud":42.75689932600952,"longitud":-7.9107471826416536}},{"type":"Feature","id":4,"geometry":{"type":"Point","coordinates":[-3.7170156919636548,40.49506365870253]},"properties":{"OBJECTID":4,"codine":"13","nombre":"Comunidad de Madrid","superficie_ha":802714.83,"densidad_pob":854.59,"poblacion":6859914,"hombres":3279823,"mujeres":3580091,"capital":"Madrid","latitud":40.495063658935294,"longitud":-3.7170156918440123}},{"type":"Feature","id":5,"geometry":{"type":"Point","coordinates":[-4.57578904529787,37.463252651753]},"properties":{"OBJECTID":5,"codine":"01","nombre":"Andalucía","superficie_ha":8759486.78,"densidad_pob":97.82,"poblacion":8568513,"hombres":4218555,"mujeres":4349958,"capital":"Sevilla","latitud":37.4632526519282,"longitud":-4.575789045191993}},{"type":"Feature","id":6,"geometry":{"type":"Point","coordinates":[-1.4851772723882393,38.00206990958769]},"properties":{"OBJECTID":6,"codine":"14","nombre":"Región de Murcia","superficie_ha":1131616.68,"densidad_pob":137.19,"poblacion":1552457,"hombres":777668,"mujeres":774789,"capital":"Murcia","latitud":38.00206991042176,"longitud":-1.4851772724810544}},{"type":"Feature","id":7,"geometry":{"type":"Point","coordinates":[-1.6459696023966288,42.66716973706672]},"properties":{"OBJECTID":7,"codine":"15","nombre":"Comunidad Foral de Navarra","superficie_ha":1039244.82,"densidad_pob":64.64,"poblacion":671746,"hombres":332086,"mujeres":339660,"capital":"Pamplona","latitud":42.667169737273504,"longitud":-1.6459696027550794}},{"type":"Feature","id":8,"geometry":{"type":"Point","coordinates":[-2.6164142660415277,43.043540995954466]},"properties":{"OBJECTID":8,"codine":"16","nombre":"País Vasco/Euskadi","superficie_ha":723426.52,"densidad_pob":306.74,"poblacion":2219019,"hombres":1078643,"mujeres":1140376,"capital":"Vitoria-Gasteiz -  sede institucional","latitud":43.043540996788295,"longitud":-2.6164142662942003}},{"type":"Feature","id":9,"geometry":{"type":"Point","coordinates":[-2.517060061120336,42.274895370081666]},"properties":{"OBJECTID":9,"codine":"17","nombre":"La Rioja","superficie_ha":504509.42,"densidad_pob":63.92,"poblacion":322490,"hombres":159142,"mujeres":163348,"capital":"Logroño","latitud":42.27489537084093,"longitud":-2.5170600609282916}},{"type":"Feature","id":10,"geometry":{"type":"Point","coordinates":[-5.34288955026319,35.89359842734337]},"properties":{"OBJECTID":10,"codine":"18","nombre":"Ciudad Autónoma de Ceuta","superficie_ha":1987,"densidad_pob":4179.11,"poblacion":83039,"hombres":41894,"mujeres":41145,"capital":"Ceuta","latitud":35.89359842792741,"longitud":-5.342889549996264}},{"type":"Feature","id":11,"geometry":{"type":"Point","coordinates":[-2.9504601409823,35.29104683376714]},"properties":{"OBJECTID":11,"codine":"19","nombre":"Ciudad Autónoma de Melilla","superficie_ha":1424.28,"densidad_pob":6002.4,"poblacion":85491,"hombres":43047,"mujeres":42444,"capital":"Melilla","latitud":35.29104683423589,"longitud":-2.950460140885501}},{"type":"Feature","id":12,"geometry":{"type":"Point","coordinates":[-5.116400234507843,36.057147856188905]},"properties":{"OBJECTID":12,"codine":"20","nombre":"Territorios no asociados a ninguna autonomía","superficie_ha":null,"densidad_pob":null,"poblacion":null,"hombres":null,"mujeres":null,"capital":null,"latitud":36.05714785639963,"longitud":-5.116400234534571}},{"type":"Feature","id":13,"geometry":{"type":"Point","coordinates":[-0.6599143157815909,41.51952142608398]},"properties":{"OBJECTID":13,"codine":"02","nombre":"Aragón","superficie_ha":4772214.38,"densidad_pob":28.07,"poblacion":1339727,"hombres":661366,"mujeres":678361,"capital":"Zaragoza","latitud":41.51952142641645,"longitud":-0.6599143159948406}},{"type":"Feature","id":14,"geometry":{"type":"Point","coordinates":[-5.993372298468259,43.29241876680136]},"properties":{"OBJECTID":14,"codine":"03","nombre":"Principado de Asturias","superficie_ha":1060568.26,"densidad_pob":94.79,"poblacion":1005283,"hombres":479064,"mujeres":526219,"capital":"Oviedo","latitud":43.29241876763165,"longitud":-5.9933722984488025}},{"type":"Feature","id":15,"geometry":{"type":"Point","coordinates":[2.9124303002973453,39.57405186395683]},"properties":{"OBJECTID":15,"codine":"04","nombre":"Illes Balears","superficie_ha":499170,"densidad_pob":239.85,"poblacion":1197261,"hombres":595216,"mujeres":602045,"capital":"Palma","latitud":39.57405186459886,"longitud":2.9124303007352372}},{"type":"Feature","id":16,"geometry":{"type":"Point","coordinates":[-4.029303519120137,43.19772643175096]},"properties":{"OBJECTID":16,"codine":"06","nombre":"Cantabria","superficie_ha":533019.29,"densidad_pob":110.39,"poblacion":588419,"hombres":284880,"mujeres":303539,"capital":"Santander","latitud":43.19772643217217,"longitud":-4.029303519424645}},{"type":"Feature","id":17,"geometry":{"type":"Point","coordinates":[-4.781858694346148,41.754351620233884]},"properties":{"OBJECTID":17,"codine":"07","nombre":"Castilla y León","superficie_ha":9421870.94,"densidad_pob":25.26,"poblacion":2380149,"hombres":1171003,"mujeres":1209146,"capital":"Valladolid - sede institucional","latitud":41.75435162091909,"longitud":-4.781858694451547}},{"type":"Feature","id":18,"geometry":{"type":"Point","coordinates":[-3.004577066572531,39.580936955592364]},"properties":{"OBJECTID":18,"codine":"08","nombre":"Castilla-La Mancha","superficie_ha":7946418.11,"densidad_pob":26.16,"poblacion":2078534,"hombres":1041161,"mujeres":1037373,"capital":"Toledo - sede institucional","latitud":39.580936956373336,"longitud":-3.0045770662360702}},{"type":"Feature","id":19,"geometry":{"type":"Point","coordinates":[1.528861430169993,41.79838870930669]},"properties":{"OBJECTID":19,"codine":"09","nombre":"Cataluña/Catalunya","superficie_ha":3211253.58,"densidad_pob":246.29,"poblacion":7909125,"hombres":3888886,"mujeres":4020239,"capital":"Barcelona","latitud":41.798388710079685,"longitud":1.5288614305514847}},{"type":"Feature","id":20,"geometry":{"type":"Point","coordinates":[-0.5546363000766614,39.401441008444316]},"properties":{"OBJECTID":20,"codine":"10","nombre":"Comunitat Valenciana","superficie_ha":2326524.98,"densidad_pob":223.96,"poblacion":5210600,"hombres":2561206,"mujeres":2649394,"capital":"Valencia","latitud":39.40144100904344,"longitud":-0.5546362998299449}}]}